{
  "New York": {
    "location": "New York, NY, USA",
    "coordinates": {
      "lat": 40.7127753,
      "lon": -74.0059728
    },
    "weather": {
      "temperature_c": -10.9,
      "condition": "Clear sky",
      "wind_speed_kmh": 13.0,
      "needs_umbrella": false
    },
    "air_quality": {
      "aqi": 77,
      "category": "Good air quality",
      "health_recommendation": "Moderate"
    },
    "places": {
      "tourist_attraction": [
        {
          "name": "Brooklyn Bridge",
          "address": "New York, NY 10038, USA",
          "rating": 4.8
        },
        {
          "name": "Empire State Building",
          "address": "20 W 34th St., New York, NY 10001, USA",
          "rating": 4.7
        },
        {
          "name": "Madison Square Garden",
          "address": "New York, NY 10001, USA",
          "rating": 4.7
        },
        {
          "name": "Bryant Park",
          "address": "New York, NY 10018, USA",
          "rating": 4.7
        },
        {
          "name": "The High Line",
          "address": "New York, NY 10011, USA",
          "rating": 4.7
        }
      ],
      "museum": [
        {
          "name": "Empire State Building",
          "address": "20 W 34th St., New York, NY 10001, USA",
          "rating": 4.7
        },
        {
          "name": "9/11 Memorial & Museum",
          "address": "180 Greenwich St, New York, NY 10007, USA",
          "rating": 4.8
        },
        {
          "name": "Whitney Museum of American Art",
          "address": "99 Gansevoort St, New York, NY 10014, USA",
          "rating": 4.5
        },
        {
          "name": "The Morgan Library & Museum",
          "address": "225 Madison Ave, New York, NY 10016, USA",
          "rating": 4.7
        },
        {
          "name": "Museum of Ice Cream",
          "address": "558 Broadway, New York, NY 10012, USA",
          "rating": 4.2
        }
      ],
      "park": [
        {
          "name": "9/11 Memorial & Museum",
          "address": "180 Greenwich St, New York, NY 10007, USA",
          "rating": 4.8
        },
        {
          "name": "Bryant Park",
          "address": "New York, NY 10018, USA",
          "rating": 4.7
        },
        {
          "name": "The High Line",
          "address": "New York, NY 10011, USA",
          "rating": 4.7
        },
        {
          "name": "The Battery",
          "address": "New York, NY 10004, USA",
          "rating": 4.6
        },
        {
          "name": "Washington Square Park",
          "address": "New York, NY 10012, USA",
          "rating": 4.6
        }
      ]
    }
  },
  "Miami": {
    "location": "Miami, FL, USA",
    "coordinates": {
      "lat": 25.7616798,
      "lon": -80.1917902
    },
    "weather": {
      "temperature_c": 11.8,
      "condition": "Mainly clear",
      "wind_speed_kmh": 24.3,
      "needs_umbrella": false
    },
    "air_quality": {
      "aqi": 65,
      "category": "Good air quality",
      "health_recommendation": "Moderate"
    },
    "places": {
      "tourist_attraction": [
        {
          "name": "Bayside Marketplace",
          "address": "401 Biscayne Blvd, Miami, FL 33132, USA",
          "rating": 4.5
        },
        {
          "name": "Wynwood Walls",
          "address": "2516 NW 2nd Ave, Miami, FL 33127, USA",
          "rating": 4.7
        },
        {
          "name": "Vizcaya Museum & Gardens",
          "address": "3251 S Miami Ave, Miami, FL 33129, USA",
          "rating": 4.7
        },
        {
          "name": "Bayfront Park",
          "address": "301 Biscayne Blvd, Miami, FL 33132, USA",
          "rating": 4.7
        },
        {
          "name": "Phillip & Patricia Frost Museum of Science",
          "address": "1101 Biscayne Blvd, Miami, FL 33132, USA",
          "rating": 4.4
        }
      ],
      "museum": [
        {
          "name": "Wynwood Walls",
          "address": "2516 NW 2nd Ave, Miami, FL 33127, USA",
          "rating": 4.7
        },
        {
          "name": "Vizcaya Museum & Gardens",
          "address": "3251 S Miami Ave, Miami, FL 33129, USA",
          "rating": 4.7
        },
        {
          "name": "Phillip & Patricia Frost Museum of Science",
          "address": "1101 Biscayne Blvd, Miami, FL 33132, USA",
          "rating": 4.4
        },
        {
          "name": "MUSEUM OF ICE CREAM",
          "address": "851 NE 1st Ave, Miami, FL 33132, USA",
          "rating": 4.5
        },
        {
          "name": "P\u00e9rez Art Museum Miami",
          "address": "1103 Biscayne Blvd, Miami, FL 33132, USA",
          "rating": 4.5
        }
      ],
      "park": [
        {
          "name": "Wynwood Walls",
          "address": "2516 NW 2nd Ave, Miami, FL 33127, USA",
          "rating": 4.7
        },
        {
          "name": "Bayfront Park",
          "address": "301 Biscayne Blvd, Miami, FL 33132, USA",
          "rating": 4.7
        },
        {
          "name": "Jungle Island",
          "address": "1111 Parrot Jungle Trail, Miami, FL 33132, USA",
          "rating": 4.1
        },
        {
          "name": "Miami Seaquarium",
          "address": "4400, Rickenbacker Cswy, Miami, FL 33149, USA",
          "rating": 3.7
        },
        {
          "name": "Domino Park",
          "address": "1444 SW 8th St, Miami, FL 33135, USA",
          "rating": 4.5
        }
      ]
    }
  }
}